[
    {
        "id": 1,
        "title": "Ms",
        "subject": 1,
        "address": "421 Shasta Court",
        "latitude": 8.2414293,
        "longitude": 124.2469573
    },
    {
        "id": 2,
        "title": "Dr",
        "subject": 2,
        "address": "7282 Anzinger Street",
        "latitude": 23.3790333,
        "longitude": 113.7632828
    },
    {
        "id": 3,
        "title": "Honorable",
        "subject": 3,
        "address": "129 Wayridge Alley",
        "latitude": 51.4986953,
        "longitude": -0.1550173
    },
    {
        "id": 4,
        "title": "Mr",
        "subject": 4,
        "address": "05 Shopko Avenue",
        "latitude": 60.7412843,
        "longitude": 56.7240294
    },
    {
        "id": 5,
        "title": "Mr",
        "subject": 5,
        "address": "16948 Mesta Road",
        "latitude": 40.5257819,
        "longitude": 72.0705185
    },
    {
        "id": 6,
        "title": "Honorable",
        "subject": 6,
        "address": "25091 Basil Trail",
        "latitude": -6.8089753,
        "longitude": 106.493598
    },
    {
        "id": 7,
        "title": "Mrs",
        "subject": 7,
        "address": "349 Oneill Junction",
        "latitude": 43.4945737,
        "longitude": 5.8978018
    },
    {
        "id": 8,
        "title": "Mr",
        "subject": 8,
        "address": "3029 Fair Oaks Street",
        "latitude": 39.4113773,
        "longitude": -8.803326
    },
    {
        "id": 9,
        "title": "Honorable",
        "subject": 9,
        "address": "14486 Schmedeman Terrace",
        "latitude": 49.5609979,
        "longitude": 5.8741913
    },
    {
        "id": 10,
        "title": "Honorable",
        "subject": 10,
        "address": "289 Division Court",
        "latitude": 14.4776308,
        "longitude": 121.0328004
    },
    {
        "id": 11,
        "title": "Honorable",
        "subject": 11,
        "address": "360 Loeprich Court",
        "latitude": 49.0711781,
        "longitude": 29.8488529
    },
    {
        "id": 12,
        "title": "Honorable",
        "subject": 12,
        "address": "7 Rusk Way",
        "latitude": 30.7833,
        "longitude": 114.41144
    },
    {
        "id": 13,
        "title": "Honorable",
        "subject": 13,
        "address": "46 Acker Hill",
        "latitude": 0.6183138,
        "longitude": -77.9424531
    },
    {
        "id": 14,
        "title": "Mr",
        "subject": 14,
        "address": "83 Chinook Center",
        "latitude": -8.2424321,
        "longitude": 123.4940401
    },
    {
        "id": 15,
        "title": "Honorable",
        "subject": 15,
        "address": "2 Hooker Terrace",
        "latitude": -11.0216067,
        "longitude": -77.6407258
    },
    {
        "id": 16,
        "title": "Mrs",
        "subject": 16,
        "address": "25422 Almo Way",
        "latitude": -4.436417,
        "longitude": 119.6499162
    },
    {
        "id": 17,
        "title": "Rev",
        "subject": 17,
        "address": "3 American Ash Hill",
        "latitude": 14.1762086,
        "longitude": -90.2625604
    },
    {
        "id": 18,
        "title": "Mr",
        "subject": 18,
        "address": "7 Debs Hill",
        "latitude": -3.0245897,
        "longitude": 115.9881867
    },
    {
        "id": 19,
        "title": "Rev",
        "subject": 19,
        "address": "065 Calypso Crossing",
        "latitude": 13.3601931,
        "longitude": 99.9129845
    },
    {
        "id": 20,
        "title": "Rev",
        "subject": 20,
        "address": "08 Oak Valley Plaza",
        "latitude": -15.3612378,
        "longitude": -70.3628516
    },
    {
        "id": 21,
        "title": "Rev",
        "subject": 21,
        "address": "2772 Hoard Drive",
        "latitude": -23.4849456,
        "longitude": -46.3494828
    },
    {
        "id": 22,
        "title": "Ms",
        "subject": 22,
        "address": "7 8th Pass",
        "latitude": 38.6,
        "longitude": -121.45
    },
    {
        "id": 23,
        "title": "Ms",
        "subject": 23,
        "address": "6 Comanche Alley",
        "latitude": 41.6755501,
        "longitude": 20.0553882
    },
    {
        "id": 24,
        "title": "Ms",
        "subject": 24,
        "address": "92 Morrow Avenue",
        "latitude": 22.265811,
        "longitude": 113.543784
    },
    {
        "id": 25,
        "title": "Ms",
        "subject": 25,
        "address": "4 Londonderry Road",
        "latitude": 34.746611,
        "longitude": 113.625328
    },
    {
        "id": 26,
        "title": "Honorable",
        "subject": 26,
        "address": "6241 Trailsway Road",
        "latitude": 9.8252566,
        "longitude": 105.8172881
    },
    {
        "id": 27,
        "title": "Mr",
        "subject": 27,
        "address": "46 Oak Valley Way",
        "latitude": 14.1005099,
        "longitude": -1.6226538
    },
    {
        "id": 28,
        "title": "Mr",
        "subject": 28,
        "address": "7 Sunnyside Street",
        "latitude": 19.09535,
        "longitude": 108.651815
    },
    {
        "id": 29,
        "title": "Dr",
        "subject": 29,
        "address": "8 Morrow Court",
        "latitude": 50.2770333,
        "longitude": 15.0197682
    },
    {
        "id": 30,
        "title": "Ms",
        "subject": 30,
        "address": "2 Pond Road",
        "latitude": 38.5193772,
        "longitude": 26.2363678
    },
    {
        "id": 31,
        "title": "Rev",
        "subject": 31,
        "address": "4934 Briar Crest Place",
        "latitude": 32.6786908,
        "longitude": -97.3354531
    },
    {
        "id": 32,
        "title": "Ms",
        "subject": 32,
        "address": "76483 Emmet Street",
        "latitude": 0.8554519,
        "longitude": 124.6192702
    },
    {
        "id": 33,
        "title": "Rev",
        "subject": 33,
        "address": "147 Raven Lane",
        "latitude": 27.754532,
        "longitude": 112.723615
    },
    {
        "id": 34,
        "title": "Rev",
        "subject": 34,
        "address": "90 Ridgeview Court",
        "latitude": 10.35,
        "longitude": 124.8
    },
    {
        "id": 35,
        "title": "Rev",
        "subject": 35,
        "address": "72 Bartelt Trail",
        "latitude": 3.1523104,
        "longitude": 101.7178316
    },
    {
        "id": 36,
        "title": "Mrs",
        "subject": 36,
        "address": "53418 Armistice Hill",
        "latitude": 55.6646665,
        "longitude": 12.5436481
    },
    {
        "id": 37,
        "title": "Honorable",
        "subject": 37,
        "address": "70 Sunfield Junction",
        "latitude": 42.891255,
        "longitude": 129.508945
    },
    {
        "id": 38,
        "title": "Ms",
        "subject": 38,
        "address": "95 Karstens Center",
        "latitude": 49.0226636,
        "longitude": 17.7792323
    },
    {
        "id": 39,
        "title": "Honorable",
        "subject": 39,
        "address": "8 Manley Road",
        "latitude": 25.692148,
        "longitude": -100.2638682
    },
    {
        "id": 40,
        "title": "Honorable",
        "subject": 40,
        "address": "7 Myrtle Trail",
        "latitude": 36.983696,
        "longitude": 115.070598
    },
    {
        "id": 41,
        "title": "Dr",
        "subject": 41,
        "address": "6 Graceland Way",
        "latitude": -35.5930962,
        "longitude": -71.7325021
    },
    {
        "id": 42,
        "title": "Mrs",
        "subject": 42,
        "address": "57247 Sunbrook Crossing",
        "latitude": 23.583208,
        "longitude": 116.468928
    },
    {
        "id": 43,
        "title": "Mr",
        "subject": 43,
        "address": "1 Del Mar Drive",
        "latitude": 43.4945737,
        "longitude": 5.8978018
    },
    {
        "id": 44,
        "title": "Honorable",
        "subject": 44,
        "address": "49959 Carioca Place",
        "latitude": 46.748522,
        "longitude": 82.978928
    },
    {
        "id": 45,
        "title": "Dr",
        "subject": 45,
        "address": "2 Lighthouse Bay Way",
        "latitude": 59.3092322,
        "longitude": 18.0807273
    },
    {
        "id": 46,
        "title": "Mr",
        "subject": 46,
        "address": "3992 Pawling Pass",
        "latitude": 9.08556,
        "longitude": 125.57278
    },
    {
        "id": 47,
        "title": "Honorable",
        "subject": 47,
        "address": "4694 Green Ridge Street",
        "latitude": -12.8955513,
        "longitude": -38.6779363
    },
    {
        "id": 48,
        "title": "Dr",
        "subject": 48,
        "address": "7 Bayside Place",
        "latitude": 24.44218,
        "longitude": 114.938684
    },
    {
        "id": 49,
        "title": "Honorable",
        "subject": 49,
        "address": "7821 Old Gate Lane",
        "latitude": 29.325601,
        "longitude": 107.760025
    },
    {
        "id": 50,
        "title": "Ms",
        "subject": 50,
        "address": "4 Northland Drive",
        "latitude": -7.1935036,
        "longitude": 111.6064513
    }
]
